{
  "metadata": {
    "region": "Southern Punjab, Pakistan",
    "districts": [
      "multan",
      "khanewal",
      "lodhran",
      "vehari",
      "bahawalpur",
      "bahawalnagar",
      "ry_khan",
      "dg_khan",
      "muzaffargarh",
      "layyah",
      "rajanpur"
    ],
    "total_settlements": 3782,
    "place_types_queried": [
      "city",
      "town",
      "village",
      "hamlet",
      "suburb",
      "neighbourhood"
    ],
    "source": "OpenStreetMap via Overpass API",
    "fetched_at": "2026-06-18T21:31:11Z"
  },
  "settlements": [
    {
      "name": "Khanewal",
      "district_id": "multan",
      "division": "Multan",
      "lat": 30.3022528,
      "lon": 71.9278916,
      "place_type": "city",
      "population": 227059,
      "osm_id": 251165455,
      "population_is_estimated": false,
      "district_name": "Multan"
    },
    {
      "name": "Qadirpur Ran",
      "district_id": "multan",
      "division": "Multan",
      "lat": 30.2922792,
      "lon": 71.6722363,
      "place_type": "town",
      "population": 30000,
      "osm_id": 251322597,
      "population_is_estimated": true,
      "district_name": "Multan"
    },
    {
      "name": "Basti Malook",
      "district_id": "multan",
      "division": "Multan",
      "lat": 29.854175,
      "lon": 71.5374219,
      "place_type": "village",
      "population": 5000,
      "osm_id": 251323316,
      "population_is_estimated": true,
      "district_name": "Multan"
    },
    {
      "name": "Shujabad",
      "district_id": "multan",
      "division": "Multan",
      "lat": 29.8809972,
      "lon": 71.2931695,
      "place_type": "city",
      "population": 80035,
      "osm_id": 282299313,
      "population_is_estimated": false,
      "district_name": "Multan"
    },
    {
      "name": "Ahmadpur Sial",
      "district_id": "multan",
      "division": "Multan",
      "lat": 30.6836301,
      "lon": 71.7611651,
      "place_type": "town",
      "population": 31216,
      "osm_id": 302934650,
      "population_is_estimated": false,
      "district_name": "Multan"
    },
    {
      "name": "Multan",
      "district_id": "multan",
      "division": "Multan",
      "lat": 30.197838,
      "lon": 71.4719683,
      "place_type": "city",
      "population": 1871843,
      "osm_id": 307617596,
      "population_is_estimated": false,
      "district_name": "Multan"
    },
    {
      "name": "Chak 5 Faiz",
      "district_id": "multan",
      "division": "Multan",
      "lat": 29.9661549,
      "lon": 71.5068199,
      "place_type": "village",
      "population": 5000,
      "osm_id": 310690960,
      "population_is_estimated": true,
      "district_name": "Multan"
    },
    {
      "name": "Chak 15 MR",
      "district_id": "multan",
      "division": "Multan",
      "lat": 29.9764863,
      "lon": 71.6021485,
      "place_type": "village",
      "population": 5000,
      "osm_id": 310690966,
      "population_is_estimated": true,
      "district_name": "Multan"
    },
    {
      "name": "Chak 21 MR",
      "district_id": "multan",
      "division": "Multan",
      "lat": 29.9808275,
      "lon": 71.5701899,
      "place_type": "village",
      "population": 5000,
      "osm_id": 310690967,
      "population_is_estimated": true,
      "district_name": "Multan"
    },
    {
      "name": "Makhdumpur",
      "district_id": "multan",
      "division": "Multan",
      "lat": 29.952194,
      "lon": 71.5721296,
      "place_type": "village",
      "population": 5000,
      "osm_id": 310690968,
      "population_is_estimated": true,
      "district_name": "Multan"
    },
    {
      "name": "Chak 132-10/R",
      "district_id": "multan",
      "division": "Multan",
      "lat": 29.9460979,
      "lon": 71.6091684,
      "place_type": "village",
      "population": 5000,
      "osm_id": 310690969,
      "population_is_estimated": true,
      "district_name": "Multan"
    },
    {
      "name": "Chak 379",
      "district_id": "multan",
      "division": "Multan",
      "lat": 29.9302109,
      "lon": 71.6102767,
      "place_type": "village",
      "population": 5000,
      "osm_id": 310690971,
      "population_is_estimated": true,
      "district_name": "Multan"
    },
    {
      "name": "Chak 17 MR",
      "district_id": "multan",
      "division": "Multan",
      "lat": 29.9881244,
      "lon": 71.5768402,
      "place_type": "village",
      "population": 5000,
      "osm_id": 310690975,
      "population_is_estimated": true,
      "district_name": "Multan"
    },
    {
      "name": "Chak 3 Faiz",
      "district_id": "multan",
      "division": "Multan",
      "lat": 29.9864618,
      "lon": 71.5507007,
      "place_type": "village",
      "population": 5000,
      "osm_id": 310690976,
      "population_is_estimated": true,
      "district_name": "Multan"
    },
    {
      "name": "Chak 20 MR",
      "district_id": "multan",
      "division": "Multan",
      "lat": 30.0063205,
      "lon": 71.5653869,
      "place_type": "village",
      "population": 5000,
      "osm_id": 310690978,
      "population_is_estimated": true,
      "district_name": "Multan"
    },
    {
      "name": "Chak 16 MR",
      "district_id": "multan",
      "division": "Multan",
      "lat": 29.9975457,
      "lon": 71.5974379,
      "place_type": "village",
      "population": 5000,
      "osm_id": 310690979,
      "population_is_estimated": true,
      "district_name": "Multan"
    },
    {
      "name": "Chak 18 MR",
      "district_id": "multan",
      "division": "Multan",
      "lat": 30.0172197,
      "lon": 71.5852456,
      "place_type": "village",
      "population": 5000,
      "osm_id": 310690980,
      "population_is_estimated": true,
      "district_name": "Multan"
    },
    {
      "name": "Chak 12 MR",
      "district_id": "multan",
      "division": "Multan",
      "lat": 30.0219304,
      "lon": 71.6050119,
      "place_type": "village",
      "population": 5000,
      "osm_id": 310690981,
      "population_is_estimated": true,
      "district_name": "Multan"
    },
    {
      "name": "Chak 11 MR",
      "district_id": "multan",
      "division": "Multan",
      "lat": 30.0405883,
      "lon": 71.5864463,
      "place_type": "village",
      "population": 5000,
      "osm_id": 310690982,
      "population_is_estimated": true,
      "district_name": "Multan"
    },
    {
      "name": "Chak 19 MR",
      "district_id": "multan",
      "division": "Multan",
      "lat": 30.0290425,
      "lon": 71.5663105,
      "place_type": "village",
      "population": 5000,
      "osm_id": 310690984,
      "population_is_estimated": true,
      "district_name": "Multan"
    },
    {
      "name": "Chak 13 MR",
      "district_id": "multan",
      "division": "Multan",
      "lat": 30.0068747,
      "lon": 71.6169271,
      "place_type": "village",
      "population": 5000,
      "osm_id": 310690987,
      "population_is_estimated": true,
      "district_name": "Multan"
    },
    {
      "name": "Basti Boher",
      "district_id": "multan",
      "division": "Multan",
      "lat": 30.2237699,
      "lon": 71.6233254,
      "place_type": "village",
      "population": 5000,
      "osm_id": 310690992,
      "population_is_estimated": true,
      "district_name": "Multan"
    },
    {
      "name": "Nilwala",
      "district_id": "multan",
      "division": "Multan",
      "lat": 30.2985969,
      "lon": 71.5074289,
      "place_type": "village",
      "population": 5000,
      "osm_id": 310691021,
      "population_is_estimated": true,
      "district_name": "Multan"
    },
    {
      "name": "Lutfabad",
      "district_id": "multan",
      "division": "Multan",
      "lat": 30.3191394,
      "lon": 71.5172329,
      "place_type": "village",
      "population": 5000,
      "osm_id": 310691079,
      "population_is_estimated": true,
      "district_name": "Multan"
    },
    {
      "name": "Nurpur",
      "district_id": "multan",
      "division": "Multan",
      "lat": 30.3652754,
      "lon": 71.5476592,
      "place_type": "village",
      "population": 5000,
      "osm_id": 310691124,
      "population_is_estimated": true,
      "district_name": "Multan"
    },
    {
      "name": "Bosan",
      "district_id": "multan",
      "division": "Multan",
      "lat": 30.3749048,
      "lon": 71.5313653,
      "place_type": "village",
      "population": 5000,
      "osm_id": 310691287,
      "population_is_estimated": true,
      "district_name": "Multan"
    },
    {
      "name": "Jharianwala",
      "district_id": "multan",
      "division": "Multan",
      "lat": 30.2615242,
      "lon": 71.608404,
      "place_type": "village",
      "population": 5000,
      "osm_id": 310691288,
      "population_is_estimated": true,
      "district_name": "Multan"
    },
    {
      "name": "Officers Colony",
      "district_id": "multan",
      "division": "Multan",
      "lat": 30.2110949,
      "lon": 71.4748767,
      "place_type": "suburb",
      "population": 15000,
      "osm_id": 443073142,
      "population_is_estimated": true,
      "district_name": "Multan"
    },
    {
      "name": "Gulgasht Colony",
      "district_id": "multan",
      "division": "Multan",
      "lat": 30.230254,
      "lon": 71.4741124,
      "place_type": "suburb",
      "population": 15000,
      "osm_id": 444353787,
      "population_is_estimated": true,
      "district_name": "Multan"
    },
    {
      "name": "Walled City",
      "district_id": "multan",
      "division": "Multan",
      "lat": 30.1930658,
      "lon": 71.4728572,
      "place_type": "suburb",
      "population": 15000,
      "osm_id": 667430549,
      "population_is_estimated": true,
      "district_name": "Multan"
    },
    {
      "name": "Justice Colony",
      "district_id": "multan",
      "division": "Multan",
      "lat": 30.2209281,
      "lon": 71.4719881,
      "place_type": "suburb",
      "population": 15000,
      "osm_id": 667434596,
      "population_is_estimated": true,
      "district_name": "Multan"
    },
    {
      "name": "Mumtazabad",
      "district_id": "multan",
      "division": "Multan",
      "lat": 30.1756221,
      "lon": 71.4876409,
      "place_type": "suburb",
      "population": 15000,
      "osm_id": 667434613,
      "population_is_estimated": true,
      "district_name": "Multan"
    },
    {
      "name": "Peoples Colony",
      "district_id": "multan",
      "division": "Multan",
      "lat": 30.1741871,
      "lon": 71.4964156,
      "place_type": "suburb",
      "population": 15000,
      "osm_id": 667437602,
      "population_is_estimated": true,
      "district_name": "Multan"
    },
    {
      "name": "Al Mustafa Colony",
      "district_id": "multan",
      "division": "Multan",
      "lat": 30.2128438,
      "lon": 71.4874591,
      "place_type": "suburb",
      "population": 15000,
      "osm_id": 667437604,
      "population_is_estimated": true,
      "district_name": "Multan"
    },
    {
      "name": "Al Raheem Colony",
      "district_id": "multan",
      "division": "Multan",
      "lat": 30.2030897,
      "lon": 71.4511098,
      "place_type": "suburb",
      "population": 15000,
      "osm_id": 667438431,
      "population_is_estimated": true,
      "district_name": "Multan"
    },
    {
      "name": "Meherban Colony",
      "district_id": "multan",
      "division": "Multan",
      "lat": 30.2111565,
      "lon": 71.4517965,
      "place_type": "suburb",
      "population": 15000,
      "osm_id": 667438432,
      "population_is_estimated": true,
      "district_name": "Multan"
    },
    {
      "name": "Suraj Miani",
      "district_id": "multan",
      "division": "Multan",
      "lat": 30.2179317,
      "lon": 71.4377978,
      "place_type": "suburb",
      "population": 15000,
      "osm_id": 667440910,
      "population_is_estimated": true,
      "district_name": "Multan"
    },
    {
      "name": "Gilani Colony",
      "district_id": "multan",
      "division": "Multan",
      "lat": 30.199186,
      "lon": 71.4398445,
      "place_type": "suburb",
      "population": 15000,
      "osm_id": 667440912,
      "population_is_estimated": true,
      "district_name": "Multan"
    },
    {
      "name": "Saddar",
      "district_id": "multan",
      "division": "Multan",
      "lat": 30.1889391,
      "lon": 71.4395012,
      "place_type": "suburb",
      "population": 15000,
      "osm_id": 667443108,
      "population_is_estimated": true,
      "district_name": "Multan"
    },
    {
      "name": "Gardezi Colony",
      "district_id": "multan",
      "division": "Multan",
      "lat": 30.1832448,
      "lon": 71.4263262,
      "place_type": "neighbourhood",
      "population": 3000,
      "osm_id": 667443114,
      "population_is_estimated": true,
      "district_name": "Multan"
    },
    {
      "name": "Kukkar Hatta",
      "district_id": "multan",
      "division": "Multan",
      "lat": 30.4040338,
      "lon": 71.759055,
      "place_type": "village",
      "population": 5000,
      "osm_id": 669411968,
      "population_is_estimated": true,
      "district_name": "Multan"
    },
    {
      "name": "Kot Abas Shaheed",
      "district_id": "multan",
      "division": "Multan",
      "lat": 30.263574,
      "lon": 71.7728608,
      "place_type": "village",
      "population": 5000,
      "osm_id": 669424603,
      "population_is_estimated": true,
      "district_name": "Multan"
    },
    {
      "name": "Moza Lothar",
      "district_id": "multan",
      "division": "Multan",
      "lat": 30.2368823,
      "lon": 71.732692,
      "place_type": "village",
      "population": 5000,
      "osm_id": 669424607,
      "population_is_estimated": true,
      "district_name": "Multan"
    },
    {
      "name": "Tataypur",
      "district_id": "multan",
      "division": "Multan",
      "lat": 30.2254886,
      "lon": 71.6515052,
      "place_type": "village",
      "population": 5000,
      "osm_id": 669424612,
      "population_is_estimated": true,
      "district_name": "Multan"
    },
    {
      "name": "Zaid Town",
      "district_id": "multan",
      "division": "Multan",
      "lat": 30.2057192,
      "lon": 71.5345864,
      "place_type": "suburb",
      "population": 15000,
      "osm_id": 686575642,
      "population_is_estimated": true,
      "district_name": "Multan"
    },
    {
      "name": "Industrial Estate Multan",
      "district_id": "multan",
      "division": "Multan",
      "lat": 30.1327764,
      "lon": 71.3927777,
      "place_type": "suburb",
      "population": 15000,
      "osm_id": 850051490,
      "population_is_estimated": true,
      "district_name": "Multan"
    },
    {
      "name": "Chak Naurang Shah",
      "district_id": "multan",
      "division": "Multan",
      "lat": 30.4751405,
      "lon": 71.8467977,
      "place_type": "village",
      "population": 5000,
      "osm_id": 866748181,
      "population_is_estimated": true,
      "district_name": "Multan"
    },
    {
      "name": "Fazil Shah",
      "district_id": "multan",
      "division": "Multan",
      "lat": 30.5646068,
      "lon": 71.7985609,
      "place_type": "village",
      "population": 5000,
      "osm_id": 866753575,
      "population_is_estimated": true,
      "district_name": "Multan"
    },
    {
      "name": "Coca Cola Factory Colony",
      "district_id": "multan",
      "division": "Multan",
      "lat": 30.1684934,
      "lon": 71.4833582,
      "place_type": "suburb",
      "population": 15000,
      "osm_id": 874290803,
      "population_is_estimated": true,
      "district_name": "Multan"
    },
    {
      "name": "Shah Khuram Colony",
      "district_id": "multan",
      "division": "Multan",
      "lat": 30.18248,
      "lon": 71.4744532,
      "place_type": "suburb",
      "population": 15000,
      "osm_id": 874292211,
      "population_is_estimated": true,
      "district_name": "Multan"
    },
    {
      "name": "Shahpur",
      "district_id": "multan",
      "division": "Multan",
      "lat": 29.9840144,
      "lon": 71.2804127,
      "place_type": "village",
      "population": 5000,
      "osm_id": 895259500,
      "population_is_estimated": true,
      "district_name": "Multan"
    },
    {
      "name": "Khanpur Qaziawala",
      "district_id": "multan",
      "division": "Multan",
      "lat": 29.9778437,
      "lon": 71.2904978,
      "place_type": "village",
      "population": 5000,
      "osm_id": 895259918,
      "population_is_estimated": true,
      "district_name": "Multan"
    },
    {
      "name": "Loharanwala",
      "district_id": "multan",
      "division": "Multan",
      "lat": 29.9936414,
      "lon": 71.3069344,
      "place_type": "village",
      "population": 5000,
      "osm_id": 895260672,
      "population_is_estimated": true,
      "district_name": "Multan"
    },
    {
      "name": "Sikandarabad",
      "district_id": "multan",
      "division": "Multan",
      "lat": 29.9662559,
      "lon": 71.3607288,
      "place_type": "village",
      "population": 5000,
      "osm_id": 895260811,
      "population_is_estimated": true,
      "district_name": "Multan"
    },
    {
      "name": "Shahpur Ubbha",
      "district_id": "multan",
      "division": "Multan",
      "lat": 29.9149828,
      "lon": 71.3518434,
      "place_type": "village",
      "population": 5000,
      "osm_id": 895260882,
      "population_is_estimated": true,
      "district_name": "Multan"
    },
    {
      "name": "Basti Chhaju Shah",
      "district_id": "multan",
      "division": "Multan",
      "lat": 29.9190355,
      "lon": 71.2925578,
      "place_type": "village",
      "population": 5000,
      "osm_id": 895262258,
      "population_is_estimated": true,
      "district_name": "Multan"
    },
    {
      "name": "Butanwala",
      "district_id": "multan",
      "division": "Multan",
      "lat": 29.91619,
      "lon": 71.2697697,
      "place_type": "village",
      "population": 5000,
      "osm_id": 895262277,
      "population_is_estimated": true,
      "district_name": "Multan"
    },
    {
      "name": "Khaipur",
      "district_id": "multan",
      "division": "Multan",
      "lat": 29.8741484,
      "lon": 71.2623024,
      "place_type": "village",
      "population": 5000,
      "osm_id": 895264415,
      "population_is_estimated": true,
      "district_name": "Multan"
    },
    {
      "name": "Rukan Hatti",
      "district_id": "multan",
      "division": "Multan",
      "lat": 29.8519671,
      "lon": 71.2640191,
      "place_type": "village",
      "population": 5000,
      "osm_id": 895265422,
      "population_is_estimated": true,
      "district_name": "Multan"
    },
    {
      "name": "Basti",
      "district_id": "multan",
      "division": "Multan",
      "lat": 29.8357373,
      "lon": 71.2973214,
      "place_type": "village",
      "population": 5000,
      "osm_id": 895265432,
      "population_is_estimated": true,
      "district_name": "Multan"
    },
    {
      "name": "Gajju Hatta",
      "district_id": "multan",
      "division": "Multan",
      "lat": 29.8457137,
      "lon": 71.3503647,
      "place_type": "village",
      "population": 5000,
      "osm_id": 895265445,
      "population_is_estimated": true,
      "district_name": "Multan"
    },
    {
      "name": "Head Muhammad Wala",
      "district_id": "multan",
      "division": "Multan",
      "lat": 30.2981782,
      "lon": 71.3448043,
      "place_type": "village",
      "population": 5000,
      "osm_id": 970514963,
      "population_is_estimated": true,
      "district_name": "Multan"
    },
    {
      "name": "Jamilabad",
      "district_id": "multan",
      "division": "Multan",
      "lat": 30.2041065,
      "lon": 71.4240405,
      "place_type": "suburb",
      "population": 15000,
      "osm_id": 1458857356,
      "population_is_estimated": true,
      "district_name": "Multan"
    },
    {
      "name": "Kabirwala",
      "district_id": "multan",
      "division": "Multan",
      "lat": 30.4033711,
      "lon": 71.8692824,
      "place_type": "town",
      "population": 30000,
      "osm_id": 1907492046,
      "population_is_estimated": true,
      "district_name": "Multan"
    },
    {
      "name": "A Block",
      "district_id": "multan",
      "division": "Multan",
      "lat": 30.195472,
      "lon": 71.512628,
      "place_type": "village",
      "population": 5000,
      "osm_id": 1921952393,
      "population_is_estimated": true,
      "district_name": "Multan"
    },
    {
      "name": "Ali Town",
      "district_id": "multan",
      "division": "Multan",
      "lat": 30.176589,
      "lon": 71.524279,
      "place_type": "village",
      "population": 5000,
      "osm_id": 1921952423,
      "population_is_estimated": true,
      "district_name": "Multan"
    },
    {
      "name": "Ansar Colony",
      "district_id": "multan",
      "division": "Multan",
      "lat": 30.182812,
      "lon": 71.499925,
      "place_type": "village",
      "population": 5000,
      "osm_id": 1921952434,
      "population_is_estimated": true,
      "district_name": "Multan"
    },
    {
      "name": "B Block",
      "district_id": "multan",
      "division": "Multan",
      "lat": 30.195301,
      "lon": 71.507885,
      "place_type": "village",
      "population": 5000,
      "osm_id": 1921952451,
      "population_is_estimated": true,
      "district_name": "Multan"
    },
    {
      "name": "Basti Dogran",
      "district_id": "multan",
      "division": "Multan",
      "lat": 30.167985,
      "lon": 71.494539,
      "place_type": "suburb",
      "population": 15000,
      "osm_id": 1921952497,
      "population_is_estimated": true,
      "district_name": "Multan"
    },
    {
      "name": "C Block",
      "district_id": "multan",
      "division": "Multan",
      "lat": 30.192554,
      "lon": 71.511812,
      "place_type": "village",
      "population": 5000,
      "osm_id": 1921952524,
      "population_is_estimated": true,
      "district_name": "Multan"
    },
    {
      "name": "D Block",
      "district_id": "multan",
      "division": "Multan",
      "lat": 30.193369,
      "lon": 71.506705,
      "place_type": "village",
      "population": 5000,
      "osm_id": 1921952630,
      "population_is_estimated": true,
      "district_name": "Multan"
    },
    {
      "name": "Dera Basti",
      "district_id": "multan",
      "division": "Multan",
      "lat": 30.18028,
      "lon": 71.460357,
      "place_type": "suburb",
      "population": 15000,
      "osm_id": 1921952803,
      "population_is_estimated": true,
      "district_name": "Multan"
    },
    {
      "name": "F Block",
      "district_id": "multan",
      "division": "Multan",
      "lat": 30.189443,
      "lon": 71.505632,
      "place_type": "village",
      "population": 5000,
      "osm_id": 1921952856,
      "population_is_estimated": true,
      "district_name": "Multan"
    },
    {
      "name": "Fatima Jinnah Town",
      "district_id": "multan",
      "division": "Multan",
      "lat": 30.157342,
      "lon": 71.51885,
      "place_type": "suburb",
      "population": 15000,
      "osm_id": 1921952898,
      "population_is_estimated": true,
      "district_name": "Multan"
    },
    {
      "name": "Ghareeb Abad",
      "district_id": "multan",
      "division": "Multan",
      "lat": 30.169938,
      "lon": 71.432226,
      "place_type": "village",
      "population": 5000,
      "osm_id": 1921953038,
      "population_is_estimated": true,
      "district_name": "Multan"
    },
    {
      "name": "Grass Mandi",
      "district_id": "multan",
      "division": "Multan",
      "lat": 30.173371,
      "lon": 71.431968,
      "place_type": "village",
      "population": 5000,
      "osm_id": 1921953302,
      "population_is_estimated": true,
      "district_name": "Multan"
    },
    {
      "name": "Gulgasht Colony",
      "district_id": "multan",
      "division": "Multan",
      "lat": 30.227394,
      "lon": 71.4741204,
      "place_type": "village",
      "population": 5000,
      "osm_id": 1921953310,
      "population_is_estimated": true,
      "district_name": "Multan"
    },
    {
      "name": "H Block",
      "district_id": "multan",
      "division": "Multan",
      "lat": 30.184872,
      "lon": 71.504838,
      "place_type": "village",
      "population": 5000,
      "osm_id": 1921953332,
      "population_is_estimated": true,
      "district_name": "Multan"
    },
    {
      "name": "Hussain Agahi",
      "district_id": "multan",
      "division": "Multan",
      "lat": 30.195644,
      "lon": 71.47409,
      "place_type": "neighbourhood",
      "population": 3000,
      "osm_id": 1921953559,
      "population_is_estimated": true,
      "district_name": "Multan"
    },
    {
      "name": "Jalil Abad",
      "district_id": "multan",
      "division": "Multan",
      "lat": 30.184593,
      "lon": 71.447031,
      "place_type": "suburb",
      "population": 15000,
      "osm_id": 1921953662,
      "population_is_estimated": true,
      "district_name": "Multan"
    },
    {
      "name": "Justice Colony",
      "district_id": "multan",
      "division": "Multan",
      "lat": 30.220921,
      "lon": 71.471922,
      "place_type": "village",
      "population": 5000,
      "osm_id": 1921953727,
      "population_is_estimated": true,
      "district_name": "Multan"
    },
    {
      "name": "Kotla Toley Khan",
      "district_id": "multan",
      "division": "Multan",
      "lat": 30.2037662,
      "lon": 71.4657939,
      "place_type": "suburb",
      "population": 15000,
      "osm_id": 1921953757,
      "population_is_estimated": true,
      "district_name": "Multan"
    },
    {
      "name": "Lal Kurti",
      "district_id": "multan",
      "division": "Multan",
      "lat": 30.189936,
      "lon": 71.439672,
      "place_type": "neighbourhood",
      "population": 3000,
      "osm_id": 1921953760,
      "population_is_estimated": true,
      "district_name": "Multan"
    },
    {
      "name": "Lasani Colony",
      "district_id": "multan",
      "division": "Multan",
      "lat": 30.159445,
      "lon": 71.500354,
      "place_type": "suburb",
      "population": 15000,
      "osm_id": 1921953769,
      "population_is_estimated": true,
      "district_name": "Multan"
    },
    {
      "name": "Mohallah Kamangran",
      "district_id": "multan",
      "division": "Multan",
      "lat": 30.194163,
      "lon": 71.474733,
      "place_type": "neighbourhood",
      "population": 3000,
      "osm_id": 1921953884,
      "population_is_estimated": true,
      "district_name": "Multan"
    },
    {
      "name": "Nasheman Colony",
      "district_id": "multan",
      "division": "Multan",
      "lat": 30.233152,
      "lon": 71.485591,
      "place_type": "village",
      "population": 5000,
      "osm_id": 1921954040,
      "population_is_estimated": true,
      "district_name": "Multan"
    },
    {
      "name": "PIA Employeed Housing",
      "district_id": "multan",
      "division": "Multan",
      "lat": 30.245125,
      "lon": 71.527777,
      "place_type": "town",
      "population": 30000,
      "osm_id": 1921954072,
      "population_is_estimated": true,
      "district_name": "Multan"
    },
    {
      "name": "Peoples Colony",
      "district_id": "multan",
      "division": "Multan",
      "lat": 30.174766,
      "lon": 71.498423,
      "place_type": "suburb",
      "population": 15000,
      "osm_id": 1921954099,
      "population_is_estimated": true,
      "district_name": "Multan"
    },
    {
      "name": "Qadeer Abad",
      "district_id": "multan",
      "division": "Multan",
      "lat": 30.1994507,
      "lon": 71.4620536,
      "place_type": "suburb",
      "population": 15000,
      "osm_id": 1921954127,
      "population_is_estimated": true,
      "district_name": "Multan"
    },
    {
      "name": "Qasim Bela",
      "district_id": "multan",
      "division": "Multan",
      "lat": 30.191932,
      "lon": 71.399159,
      "place_type": "suburb",
      "population": 15000,
      "osm_id": 1921954128,
      "population_is_estimated": true,
      "district_name": "Multan"
    },
    {
      "name": "Sameja Abad",
      "district_id": "multan",
      "division": "Multan",
      "lat": 30.199785,
      "lon": 71.53121,
      "place_type": "village",
      "population": 5000,
      "osm_id": 1921954212,
      "population_is_estimated": true,
      "district_name": "Multan"
    },
    {
      "name": "Shadab Colony",
      "district_id": "multan",
      "division": "Multan",
      "lat": 30.2136297,
      "lon": 71.4506422,
      "place_type": "neighbourhood",
      "population": 3000,
      "osm_id": 1921954242,
      "population_is_estimated": true,
      "district_name": "Multan"
    },
    {
      "name": "Shalimar Colony",
      "district_id": "multan",
      "division": "Multan",
      "lat": 30.240126,
      "lon": 71.490119,
      "place_type": "village",
      "population": 5000,
      "osm_id": 1921954265,
      "population_is_estimated": true,
      "district_name": "Multan"
    },
    {
      "name": "Shamsabad",
      "district_id": "multan",
      "division": "Multan",
      "lat": 30.207446,
      "lon": 71.477501,
      "place_type": "suburb",
      "population": 15000,
      "osm_id": 1921954266,
      "population_is_estimated": true,
      "district_name": "Multan"
    },
    {
      "name": "Suraj Miani",
      "district_id": "multan",
      "division": "Multan",
      "lat": 30.2205153,
      "lon": 71.4315062,
      "place_type": "village",
      "population": 5000,
      "osm_id": 1921954336,
      "population_is_estimated": true,
      "district_name": "Multan"
    },
    {
      "name": "Tariq Abad",
      "district_id": "multan",
      "division": "Multan",
      "lat": 30.21929,
      "lon": 71.502006,
      "place_type": "village",
      "population": 5000,
      "osm_id": 1921954350,
      "population_is_estimated": true,
      "district_name": "Multan"
    },
    {
      "name": "W Block",
      "district_id": "multan",
      "division": "Multan",
      "lat": 30.199399,
      "lon": 71.520846,
      "place_type": "village",
      "population": 5000,
      "osm_id": 1921954480,
      "population_is_estimated": true,
      "district_name": "Multan"
    },
    {
      "name": "WAPDA Town",
      "district_id": "multan",
      "division": "Multan",
      "lat": 30.24328,
      "lon": 71.50795,
      "place_type": "village",
      "population": 5000,
      "osm_id": 1921954491,
      "population_is_estimated": true,
      "district_name": "Multan"
    },
    {
      "name": "X Block",
      "district_id": "multan",
      "division": "Multan",
      "lat": 30.200751,
      "lon": 71.517563,
      "place_type": "village",
      "population": 5000,
      "osm_id": 1921954589,
      "population_is_estimated": true,
      "district_name": "Multan"
    },
    {
      "name": "Y Block",
      "district_id": "multan",
      "division": "Multan",
      "lat": 30.199506,
      "lon": 71.513636,
      "place_type": "village",
      "population": 5000,
      "osm_id": 1921954591,
      "population_is_estimated": true,
      "district_name": "Multan"
    },
    {
      "name": "Wapda Town Phase 2",
      "district_id": "multan",
      "division": "Multan",
      "lat": 30.23562,
      "lon": 71.52623,
      "place_type": "town",
      "population": 30000,
      "osm_id": 1925249428,
      "population_is_estimated": true,
      "district_name": "Multan"
    },
    {
      "name": "PIA Employeed Housing",
      "district_id": "multan",
      "division": "Multan",
      "lat": 30.24513,
      "lon": 71.52778,
      "place_type": "village",
      "population": 5000,
      "osm_id": 1925259434,
      "population_is_estimated": true,
      "district_name": "Multan"
    },
    {
      "name": "Askari Colony Ph 1",
      "district_id": "multan",
      "division": "Multan",
      "lat": 30.16711,
      "lon": 71.40757,
      "place_type": "village",
      "population": 5000,
      "osm_id": 1925285421,
      "population_is_estimated": true,
      "district_name": "Multan"
    },
    {
      "name": "Jahanian",
      "district_id": "multan",
      "division": "Multan",
      "lat": 30.038018,
      "lon": 71.8184519,
      "place_type": "town",
      "population": 30000,
      "osm_id": 2585595675,
      "population_is_estimated": true,
      "district_name": "Multan"
    },
    {
      "name": "Tiba Sultanpur",
      "district_id": "multan",
      "division": "Multan",
      "lat": 29.9747538,
      "lon": 71.8782459,
      "place_type": "town",
      "population": 30000,
      "osm_id": 2585602545,
      "population_is_estimated": true,
      "district_name": "Multan"
    },
    {
      "name": "Kot Haru",
      "district_id": "multan",
      "division": "Multan",
      "lat": 29.8273193,
      "lon": 72.0439205,
      "place_type": "village",
      "population": 5000,
      "osm_id": 2585714934,
      "population_is_estimated": true,
      "district_name": "Multan"
    },
    {
      "name": "Gamb",
      "district_id": "multan",
      "division": "Multan",
      "lat": 29.8339833,
      "lon": 72.0455513,
      "place_type": "village",
      "population": 5000,
      "osm_id": 2585715495,
      "population_is_estimated": true,
      "district_name": "Multan"
    },
    {
      "name": "Dunyapur",
      "district_id": "multan",
      "division": "Multan",
      "lat": 29.8025338,
      "lon": 71.741959,
      "place_type": "town",
      "population": 30000,
      "osm_id": 2587087771,
      "population_is_estimated": true,
      "district_name": "Multan"
    },
    {
      "name": "Traggarh",
      "district_id": "multan",
      "division": "Multan",
      "lat": 29.8454001,
      "lon": 71.5079925,
      "place_type": "village",
      "population": 5000,
      "osm_id": 2587089156,
      "population_is_estimated": true,
      "district_name": "Multan"
    },
    {
      "name": "5 Kassi",
      "district_id": "multan",
      "division": "Multan",
      "lat": 30.3633619,
      "lon": 71.8060297,
      "place_type": "village",
      "population": 5000,
      "osm_id": 3130591253,
      "population_is_estimated": true,
      "district_name": "Multan"
    },
    {
      "name": "Rangpur",
      "district_id": "multan",
      "division": "Multan",
      "lat": 30.5205323,
      "lon": 71.550204,
      "place_type": "town",
      "population": 30000,
      "osm_id": 3231567157,
      "population_is_estimated": true,
      "district_name": "Multan"
    },
    {
      "name": "Jhok Jakhran Wali",
      "district_id": "multan",
      "division": "Multan",
      "lat": 29.9830501,
      "lon": 71.33487,
      "place_type": "village",
      "population": 5000,
      "osm_id": 4319158601,
      "population_is_estimated": true,
      "district_name": "Multan"
    },
    {
      "name": "Nisar Colony",
      "district_id": "multan",
      "division": "Multan",
      "lat": 30.1762642,
      "lon": 71.4593077,
      "place_type": "suburb",
      "population": 15000,
      "osm_id": 4319164591,
      "population_is_estimated": true,
      "district_name": "Multan"
    },
    {
      "name": "Bhutta Colony No2",
      "district_id": "multan",
      "division": "Multan",
      "lat": 30.1740203,
      "lon": 71.4549129,
      "place_type": "suburb",
      "population": 15000,
      "osm_id": 4319164606,
      "population_is_estimated": true,
      "district_name": "Multan"
    },
    {
      "name": "Thati Lal",
      "district_id": "multan",
      "division": "Multan",
      "lat": 30.1012137,
      "lon": 71.3660998,
      "place_type": "village",
      "population": 5000,
      "osm_id": 4319174549,
      "population_is_estimated": true,
      "district_name": "Multan"
    },
    {
      "name": "Moza Ali Wala",
      "district_id": "multan",
      "division": "Multan",
      "lat": 30.0884309,
      "lon": 71.3651997,
      "place_type": "village",
      "population": 5000,
      "osm_id": 4319174551,
      "population_is_estimated": true,
      "district_name": "Multan"
    },
    {
      "name": "Karam Khanwala",
      "district_id": "multan",
      "division": "Multan",
      "lat": 30.0949263,
      "lon": 71.4531542,
      "place_type": "village",
      "population": 5000,
      "osm_id": 4319196960,
      "population_is_estimated": true,
      "district_name": "Multan"
    },
    {
      "name": "Gopal Pur",
      "district_id": "multan",
      "division": "Multan",
      "lat": 30.067891,
      "lon": 71.493892,
      "place_type": "village",
      "population": 5000,
      "osm_id": 4319196962,
      "population_is_estimated": true,
      "district_name": "Multan"
    },
    {
      "name": "Gulabiwala",
      "district_id": "multan",
      "division": "Multan",
      "lat": 30.0360637,
      "lon": 71.4999546,
      "place_type": "village",
      "population": 2500,
      "osm_id": 4319196975,
      "population_is_estimated": false,
      "district_name": "Multan"
    },
    {
      "name": "Budhla Sant",
      "district_id": "multan",
      "division": "Multan",
      "lat": 30.1601566,
      "lon": 71.7123651,
      "place_type": "village",
      "population": 5000,
      "osm_id": 4436355970,
      "population_is_estimated": true,
      "district_name": "Multan"
    },
    {
      "name": "Makhdoom Pur Pahuran",
      "district_id": "multan",
      "division": "Multan",
      "lat": 30.458128,
      "lon": 72.0412337,
      "place_type": "town",
      "population": 30000,
      "osm_id": 4439934423,
      "population_is_estimated": true,
      "district_name": "Multan"
    },
    {
      "name": "Jodh Pur",
      "district_id": "multan",
      "division": "Multan",
      "lat": 30.4906216,
      "lon": 71.9459187,
      "place_type": "village",
      "population": 5000,
      "osm_id": 4449367587,
      "population_is_estimated": true,
      "district_name": "Multan"
    },
    {
      "name": "Chak 2/A.H",
      "district_id": "multan",
      "division": "Multan",
      "lat": 30.4327163,
      "lon": 72.0186177,
      "place_type": "village",
      "population": 5000,
      "osm_id": 4452677676,
      "population_is_estimated": true,
      "district_name": "Multan"
    },
    {
      "name": "Chak 3/A.H",
      "district_id": "multan",
      "division": "Multan",
      "lat": 30.4218842,
      "lon": 72.0220023,
      "place_type": "village",
      "population": 5000,
      "osm_id": 4452678532,
      "population_is_estimated": true,
      "district_name": "Multan"
    },
    {
      "name": "Chak 5/A.H",
      "district_id": "multan",
      "division": "Multan",
      "lat": 30.4266928,
      "lon": 71.9938139,
      "place_type": "village",
      "population": 5000,
      "osm_id": 4452687826,
      "population_is_estimated": true,
      "district_name": "Multan"
    },
    {
      "name": "Chak 4/A.H",
      "district_id": "multan",
      "division": "Multan",
      "lat": 30.4086201,
      "lon": 71.9982606,
      "place_type": "village",
      "population": 5000,
      "osm_id": 4452693573,
      "population_is_estimated": true,
      "district_name": "Multan"
    },
    {
      "name": "Khati Pur",
      "district_id": "multan",
      "division": "Multan",
      "lat": 30.4838685,
      "lon": 71.715009,
      "place_type": "village",
      "population": 5000,
      "osm_id": 4710454117,
      "population_is_estimated": true,
      "district_name": "Multan"
    },
    {
      "name": "Al Falah Modern City",
      "district_id": "multan",
      "division": "Multan",
      "lat": 30.2480594,
      "lon": 71.5622405,
      "place_type": "town",
      "population": 30000,
      "osm_id": 4755921468,
      "population_is_estimated": true,
      "district_name": "Multan"
    },
    {
      "name": "Writers Colony",
      "district_id": "multan",
      "division": "Multan",
      "lat": 30.1987699,
      "lon": 71.4936324,
      "place_type": "suburb",
      "population": 15000,
      "osm_id": 5270362312,
      "population_is_estimated": true,
      "district_name": "Multan"
    },
    {
      "name": "Pehlwan Arian",
      "district_id": "multan",
      "division": "Multan",
      "lat": 29.9345309,
      "lon": 72.0370446,
      "place_type": "village",
      "population": 30000,
      "osm_id": 6488957557,
      "population_is_estimated": false,
      "district_name": "Multan"
    },
    {
      "name": "Shaheenabad Colony",
      "district_id": "multan",
      "division": "Multan",
      "lat": 30.1888151,
      "lon": 71.4959183,
      "place_type": "suburb",
      "population": 10000,
      "osm_id": 7528156280,
      "population_is_estimated": false,
      "district_name": "Multan"
    },
    {
      "name": "Shaheenabad Colony",
      "district_id": "multan",
      "division": "Multan",
      "lat": 30.1888397,
      "lon": 71.4947826,
      "place_type": "neighbourhood",
      "population": 10000,
      "osm_id": 7528171688,
      "population_is_estimated": false,
      "district_name": "Multan"
    },
    {
      "name": "Pull Bagar",
      "district_id": "multan",
      "division": "Multan",
      "lat": 30.5724792,
      "lon": 72.0387064,
      "place_type": "town",
      "population": 30000,
      "osm_id": 7677603386,
      "population_is_estimated": true,
      "district_name": "Multan"
    },
    {
      "name": "Manzoorabad",
      "district_id": "multan",
      "division": "Multan",
      "lat": 30.1892867,
      "lon": 71.4893004,
      "place_type": "suburb",
      "population": 15000,
      "osm_id": 8090000128,
      "population_is_estimated": true,
      "district_name": "Multan"
    },
    {
      "name": "Hyderpura",
      "district_id": "multan",
      "division": "Multan",
      "lat": 30.1810912,
      "lon": 71.4936838,
      "place_type": "suburb",
      "population": 15000,
      "osm_id": 8363983416,
      "population_is_estimated": true,
      "district_name": "Multan"
    },
    {
      "name": "Ishaq Pura",
      "district_id": "multan",
      "division": "Multan",
      "lat": 30.1878468,
      "lon": 71.4764618,
      "place_type": "neighbourhood",
      "population": 3000,
      "osm_id": 8363996430,
      "population_is_estimated": true,
      "district_name": "Multan"
    },
    {
      "name": "Thala Saddat",
      "district_id": "multan",
      "division": "Multan",
      "lat": 30.1921403,
      "lon": 71.4821336,
      "place_type": "neighbourhood",
      "population": 3000,
      "osm_id": 8363996432,
      "population_is_estimated": true,
      "district_name": "Multan"
    },
    {
      "name": "Bagh Vehra",
      "district_id": "multan",
      "division": "Multan",
      "lat": 30.1910002,
      "lon": 71.4799309,
      "place_type": "neighbourhood",
      "population": 3000,
      "osm_id": 8363996433,
      "population_is_estimated": true,
      "district_name": "Multan"
    },
    {
      "name": "Ahmadabad",
      "district_id": "multan",
      "division": "Multan",
      "lat": 30.1818792,
      "lon": 71.4856274,
      "place_type": "suburb",
      "population": 15000,
      "osm_id": 8364016417,
      "population_is_estimated": true,
      "district_name": "Multan"
    },
    {
      "name": "Ghareebabad",
      "district_id": "multan",
      "division": "Multan",
      "lat": 30.1860191,
      "lon": 71.4629221,
      "place_type": "suburb",
      "population": 15000,
      "osm_id": 8364016418,
      "population_is_estimated": true,
      "district_name": "Multan"
    },
    {
      "name": "Khwajah Colony",
      "district_id": "multan",
      "division": "Multan",
      "lat": 30.1847673,
      "lon": 71.4569271,
      "place_type": "neighbourhood",
      "population": 3000,
      "osm_id": 8364016419,
      "population_is_estimated": true,
      "district_name": "Multan"
    },
    {
      "name": "Jinnah Town",
      "district_id": "multan",
      "division": "Multan",
      "lat": 30.2106766,
      "lon": 71.4438994,
      "place_type": "neighbourhood",
      "population": 3000,
      "osm_id": 8365864118,
      "population_is_estimated": true,
      "district_name": "Multan"
    },
    {
      "name": "Mohallah Maharaja",
      "district_id": "multan",
      "division": "Multan",
      "lat": 30.1899149,
      "lon": 71.4746113,
      "place_type": "neighbourhood",
      "population": 3000,
      "osm_id": 8369663698,
      "population_is_estimated": true,
      "district_name": "Multan"
    },
    {
      "name": "Mohallah Jal Sheikh Moosa",
      "district_id": "multan",
      "division": "Multan",
      "lat": 30.1886387,
      "lon": 71.4750833,
      "place_type": "neighbourhood",
      "population": 3000,
      "osm_id": 8369663700,
      "population_is_estimated": true,
      "district_name": "Multan"
    },
    {
      "name": "Gillani Mohallah",
      "district_id": "multan",
      "division": "Multan",
      "lat": 30.1898811,
      "lon": 71.4706038,
      "place_type": "neighbourhood",
      "population": 3000,
      "osm_id": 8369663702,
      "population_is_estimated": true,
      "district_name": "Multan"
    },
    {
      "name": "Hafiz Jamal Colony",
      "district_id": "multan",
      "division": "Multan",
      "lat": 30.1963779,
      "lon": 71.4849544,
      "place_type": "neighbourhood",
      "population": 3000,
      "osm_id": 8369739347,
      "population_is_estimated": true,
      "district_name": "Multan"
    },
    {
      "name": "Razabad",
      "district_id": "multan",
      "division": "Multan",
      "lat": 30.2017893,
      "lon": 71.4863886,
      "place_type": "neighbourhood",
      "population": 3000,
      "osm_id": 8369739348,
      "population_is_estimated": true,
      "district_name": "Multan"
    },
    {
      "name": "Aslamabad",
      "district_id": "multan",
      "division": "Multan",
      "lat": 30.1997865,
      "lon": 71.4893135,
      "place_type": "neighbourhood",
      "population": 3000,
      "osm_id": 8369739349,
      "population_is_estimated": true,
      "district_name": "Multan"
    },
    {
      "name": "Rasheedabad",
      "district_id": "multan",
      "division": "Multan",
      "lat": 30.2083205,
      "lon": 71.4911479,
      "place_type": "neighbourhood",
      "population": 3000,
      "osm_id": 8369739350,
      "population_is_estimated": true,
      "district_name": "Multan"
    },
    {
      "name": "Khushal Colony",
      "district_id": "multan",
      "division": "Multan",
      "lat": 30.2079259,
      "lon": 71.4954262,
      "place_type": "neighbourhood",
      "population": 3000,
      "osm_id": 8369739351,
      "population_is_estimated": true,
      "district_name": "Multan"
    },
    {
      "name": "Ahmad Park",
      "district_id": "multan",
      "division": "Multan",
      "lat": 30.2087536,
      "lon": 71.5086675,
      "place_type": "neighbourhood",
      "population": 3000,
      "osm_id": 8369739352,
      "population_is_estimated": true,
      "district_name": "Multan"
    },
    {
      "name": "Qaisarabad",
      "district_id": "multan",
      "division": "Multan",
      "lat": 30.2138945,
      "lon": 71.5124356,
      "place_type": "suburb",
      "population": 15000,
      "osm_id": 8369739353,
      "population_is_estimated": true,
      "district_name": "Multan"
    },
    {
      "name": "Hassanabad",
      "district_id": "multan",
      "division": "Multan",
      "lat": 30.2173514,
      "lon": 71.525278,
      "place_type": "neighbourhood",
      "population": 3000,
      "osm_id": 8369739354,
      "population_is_estimated": true,
      "district_name": "Multan"
    },
    {
      "name": "Khalid Colony",
      "district_id": "multan",
      "division": "Multan",
      "lat": 30.1903326,
      "lon": 71.44591,
      "place_type": "neighbourhood",
      "population": 3000,
      "osm_id": 8370849284,
      "population_is_estimated": true,
      "district_name": "Multan"
    },
    {
      "name": "Shafat Colony",
      "district_id": "multan",
      "division": "Multan",
      "lat": 30.1883416,
      "lon": 71.4455836,
      "place_type": "neighbourhood",
      "population": 3000,
      "osm_id": 8370849285,
      "population_is_estimated": true,
      "district_name": "Multan"
    },
    {
      "name": "Hussainabad",
      "district_id": "multan",
      "division": "Multan",
      "lat": 30.1899966,
      "lon": 71.4603976,
      "place_type": "suburb",
      "population": 15000,
      "osm_id": 8371223059,
      "population_is_estimated": true,
      "district_name": "Multan"
    },
    {
      "name": "Guldeen Colony",
      "district_id": "multan",
      "division": "Multan",
      "lat": 30.1920281,
      "lon": 71.4540236,
      "place_type": "neighbourhood",
      "population": 3000,
      "osm_id": 8371223060,
      "population_is_estimated": true,
      "district_name": "Multan"
    },
    {
      "name": "Abdali Colony",
      "district_id": "multan",
      "division": "Multan",
      "lat": 30.1893662,
      "lon": 71.4484096,
      "place_type": "neighbourhood",
      "population": 3000,
      "osm_id": 8371223068,
      "population_is_estimated": true,
      "district_name": "Multan"
    },
    {
      "name": "Gujjar Khadda",
      "district_id": "multan",
      "division": "Multan",
      "lat": 30.1869368,
      "lon": 71.4454763,
      "place_type": "neighbourhood",
      "population": 3000,
      "osm_id": 8371223069,
      "population_is_estimated": true,
      "district_name": "Multan"
    },
    {
      "name": "Cantonment",
      "district_id": "multan",
      "division": "Multan",
      "lat": 30.1848639,
      "lon": 71.4279393,
      "place_type": "suburb",
      "population": 15000,
      "osm_id": 8371233699,
      "population_is_estimated": true,
      "district_name": "Multan"
    },
    {
      "name": "Mohallah Shah Gardez",
      "district_id": "multan",
      "division": "Multan",
      "lat": 30.1945375,
      "lon": 71.4670009,
      "place_type": "neighbourhood",
      "population": 3000,
      "osm_id": 8377315059,
      "population_is_estimated": true,
      "district_name": "Multan"
    },
    {
      "name": "Bukhari Colony",
      "district_id": "multan",
      "division": "Multan",
      "lat": 30.1966506,
      "lon": 71.4514567,
      "place_type": "neighbourhood",
      "population": 3000,
      "osm_id": 8385179472,
      "population_is_estimated": true,
      "district_name": "Multan"
    },
    {
      "name": "Bairoon Bohar Gate",
      "district_id": "multan",
      "division": "Multan",
      "lat": 30.1943777,
      "lon": 71.4643699,
      "place_type": "neighbourhood",
      "population": 3000,
      "osm_id": 8385503097,
      "population_is_estimated": true,
      "district_name": "Multan"
    },
    {
      "name": "Chak 125-10/R",
      "district_id": "multan",
      "division": "Multan",
      "lat": 29.9606187,
      "lon": 71.6914558,
      "place_type": "village",
      "population": 5000,
      "osm_id": 8412505002,
      "population_is_estimated": true,
      "district_name": "Multan"
    },
    {
      "name": "Mominabad",
      "district_id": "multan",
      "division": "Multan",
      "lat": 29.840172,
      "lon": 71.4731717,
      "place_type": "village",
      "population": 5000,
      "osm_id": 9366281895,
      "population_is_estimated": true,
      "district_name": "Multan"
    },
    {
      "name": "Basti Mominabad",
      "district_id": "multan",
      "division": "Multan",
      "lat": 29.8428434,
      "lon": 71.4610105,
      "place_type": "village",
      "population": 5000,
      "osm_id": 9366281896,
      "population_is_estimated": true,
      "district_name": "Multan"
    },
    {
      "name": "Wigri Wala",
      "district_id": "multan",
      "division": "Multan",
      "lat": 29.8278031,
      "lon": 71.4654597,
      "place_type": "hamlet",
      "population": 500,
      "osm_id": 9366281897,
      "population_is_estimated": true,
      "district_name": "Multan"
    },
    {
      "name": "Chak 13 Faiz",
      "district_id": "multan",
      "division": "Multan",
      "lat": 29.8102168,
      "lon": 71.4844554,
      "place_type": "village",
      "population": 5000,
      "osm_id": 9366281898,
      "population_is_estimated": true,
      "district_name": "Multan"
    },
    {
      "name": "Ismailabad",
      "district_id": "multan",
      "division": "Multan",
      "lat": 30.1305996,
      "lon": 71.3525951,
      "place_type": "village",
      "population": 5000,
      "osm_id": 9366303028,
      "population_is_estimated": true,
      "district_name": "Multan"
    },
    {
      "name": "Bahawalpur Sukha.",
      "district_id": "multan",
      "division": "Multan",
      "lat": 30.0760459,
      "lon": 71.4372437,
      "place_type": "village",
      "population": 5000,
      "osm_id": 9366303029,
      "population_is_estimated": true,
      "district_name": "Multan"
    },
    {
      "name": "Samundri Wala",
      "district_id": "multan",
      "division": "Multan",
      "lat": 30.1017769,
      "lon": 71.4742331,
      "place_type": "hamlet",
      "population": 500,
      "osm_id": 9366303030,
      "population_is_estimated": true,
      "district_name": "Multan"
    },
    {
      "name": "Billiwala",
      "district_id": "multan",
      "division": "Multan",
      "lat": 30.0815059,
      "lon": 71.5094511,
      "place_type": "village",
      "population": 5000,
      "osm_id": 9366303031,
      "population_is_estimated": true,
      "district_name": "Multan"
    },
    {
      "name": "Chak 1 Faiz",
      "district_id": "multan",
      "division": "Multan",
      "lat": 30.020511,
      "lon": 71.5145444,
      "place_type": "village",
      "population": 5000,
      "osm_id": 9366303032,
      "population_is_estimated": true,
      "district_name": "Multan"
    },
    {
      "name": "Shahkot",
      "district_id": "multan",
      "division": "Multan",
      "lat": 29.9929871,
      "lon": 71.483277,
      "place_type": "village",
      "population": 5000,
      "osm_id": 9366303033,
      "population_is_estimated": true,
      "district_name": "Multan"
    },
    {
      "name": "Qasba Chaharum",
      "district_id": "multan",
      "division": "Multan",
      "lat": 29.9844212,
      "lon": 71.4141245,
      "place_type": "village",
      "population": 5000,
      "osm_id": 9366303036,
      "population_is_estimated": true,
      "district_name": "Multan"
    },
    {
      "name": "Qasba Ayyazabad Maral",
      "district_id": "multan",
      "division": "Multan",
      "lat": 29.980762,
      "lon": 71.4226469,
      "place_type": "village",
      "population": 5000,
      "osm_id": 9366303037,
      "population_is_estimated": true,
      "district_name": "Multan"
    },
    {
      "name": "Chah Peer Wala",
      "district_id": "multan",
      "division": "Multan",
      "lat": 29.9535566,
      "lon": 71.4102344,
      "place_type": "village",
      "population": 5000,
      "osm_id": 9366303038,
      "population_is_estimated": true,
      "district_name": "Multan"
    },
    {
      "name": "Sarfrazwali",
      "district_id": "multan",
      "division": "Multan",
      "lat": 29.9521627,
      "lon": 71.4023581,
      "place_type": "village",
      "population": 5000,
      "osm_id": 9366303039,
      "population_is_estimated": true,
      "district_name": "Multan"
    },
    {
      "name": "Chak 389 WB West",
      "district_id": "multan",
      "division": "Multan",
      "lat": 29.8250671,
      "lon": 71.510641,
      "place_type": "village",
      "population": 5000,
      "osm_id": 9366303491,
      "population_is_estimated": true,
      "district_name": "Multan"
    },
    {
      "name": "Chak 77/10 R",
      "district_id": "multan",
      "division": "Multan",
      "lat": 30.3095031,
      "lon": 72.0352783,
      "place_type": "village",
      "population": 5000,
      "osm_id": 9366362943,
      "population_is_estimated": true,
      "district_name": "Multan"
    },
    {
      "name": "Chak 81/10 R",
      "district_id": "multan",
      "division": "Multan",
      "lat": 30.3161327,
      "lon": 72.0234167,
      "place_type": "village",
      "population": 5000,
      "osm_id": 9366362944,
      "population_is_estimated": true,
      "district_name": "Multan"
    },
    {
      "name": "Chak 83/10 R",
      "district_id": "multan",
      "division": "Multan",
      "lat": 30.3074571,
      "lon": 71.9980826,
      "place_type": "village",
      "population": 5000,
      "osm_id": 9366362947,
      "population_is_estimated": true,
      "district_name": "Multan"
    },
    {
      "name": "Chak 85/10 R",
      "district_id": "multan",
      "division": "Multan",
      "lat": 30.3077135,
      "lon": 71.9886439,
      "place_type": "village",
      "population": 5000,
      "osm_id": 9366362948,
      "population_is_estimated": true,
      "district_name": "Multan"
    },
    {
      "name": "Chak 84/10 R",
      "district_id": "multan",
      "division": "Multan",
      "lat": 30.3212606,
      "lon": 71.9818288,
      "place_type": "village",
      "population": 5000,
      "osm_id": 9366362949,
      "population_is_estimated": true,
      "district_name": "Multan"
    },
    {
      "name": "Peerowal",
      "district_id": "multan",
      "division": "Multan",
      "lat": 30.3353971,
      "lon": 72.0340286,
      "place_type": "village",
      "population": 5000,
      "osm_id": 9366362952,
      "population_is_estimated": true,
      "district_name": "Multan"
    },
    {
      "name": "Chak 75/10 R",
      "district_id": "multan",
      "division": "Multan",
      "lat": 30.2804608,
      "lon": 71.9826709,
      "place_type": "village",
      "population": 5000,
      "osm_id": 9366362953,
      "population_is_estimated": true,
      "district_name": "Multan"
    },
    {
      "name": "Chak 91/10 R",
      "district_id": "multan",
      "division": "Multan",
      "lat": 30.2619522,
      "lon": 71.9386849,
      "place_type": "village",
      "population": 5000,
      "osm_id": 9366362961,
      "population_is_estimated": true,
      "district_name": "Multan"
    },
    {
      "name": "Chak 167-10/R",
      "district_id": "multan",
      "division": "Multan",
      "lat": 30.2495606,
      "lon": 71.9124043,
      "place_type": "village",
      "population": 5000,
      "osm_id": 9366362962,
      "population_is_estimated": true,
      "district_name": "Multan"
    },
    {
      "name": "Chak 93-10/R",
      "district_id": "multan",
      "division": "Multan",
      "lat": 30.2432171,
      "lon": 71.9296663,
      "place_type": "village",
      "population": 5000,
      "osm_id": 9366362963,
      "population_is_estimated": true,
      "district_name": "Multan"
    },
    {
      "name": "Nonari Basti",
      "district_id": "multan",
      "division": "Multan",
      "lat": 30.2367937,
      "lon": 71.9389397,
      "place_type": "village",
      "population": 5000,
      "osm_id": 9366362971,
      "population_is_estimated": true,
      "district_name": "Multan"
    },
    {
      "name": "Chak 91/10 R",
      "district_id": "multan",
      "division": "Multan",
      "lat": 30.2357139,
      "lon": 71.9564797,
      "place_type": "village",
      "population": 5000,
      "osm_id": 9366362972,
      "population_is_estimated": true,
      "district_name": "Multan"
    },
    {
      "name": "Chak 74/10 R",
      "district_id": "multan",
      "division": "Multan",
      "lat": 30.2145872,
      "lon": 71.9683876,
      "place_type": "village",
      "population": 5000,
      "osm_id": 9366362973,
      "population_is_estimated": true,
      "district_name": "Multan"
    },
    {
      "name": "Chak 73/10 R",
      "district_id": "multan",
      "division": "Multan",
      "lat": 30.2037375,
      "lon": 71.9519782,
      "place_type": "village",
      "population": 5000,
      "osm_id": 9366362977,
      "population_is_estimated": true,
      "district_name": "Multan"
    },
    {
      "name": "Chak 67/10 R",
      "district_id": "multan",
      "division": "Multan",
      "lat": 30.2372495,
      "lon": 72.0045308,
      "place_type": "village",
      "population": 5000,
      "osm_id": 9366362978,
      "population_is_estimated": true,
      "district_name": "Multan"
    },
    {
      "name": "Chak 66/10 R",
      "district_id": "multan",
      "division": "Multan",
      "lat": 30.2203331,
      "lon": 72.0338892,
      "place_type": "village",
      "population": 5000,
      "osm_id": 9366362981,
      "population_is_estimated": true,
      "district_name": "Multan"
    },
    {
      "name": "Chak 64/10 R",
      "district_id": "multan",
      "division": "Multan",
      "lat": 30.196199,
      "lon": 72.0275342,
      "place_type": "village",
      "population": 5000,
      "osm_id": 9366362982,
      "population_is_estimated": true,
      "district_name": "Multan"
    },
    {
      "name": "Chak 63/10 R",
      "district_id": "multan",
      "division": "Multan",
      "lat": 30.1742901,
      "lon": 72.004867,
      "place_type": "village",
      "population": 5000,
      "osm_id": 9366362986,
      "population_is_estimated": true,
      "district_name": "Multan"
    },
    {
      "name": "Chak 65/10 R",
      "district_id": "multan",
      "division": "Multan",
      "lat": 30.1606146,
      "lon": 71.9912362,
      "place_type": "village",
      "population": 5000,
      "osm_id": 9366362990,
      "population_is_estimated": true,
      "district_name": "Multan"
    },
    {
      "name": "Chak 67/10 R",
      "district_id": "multan",
      "division": "Multan",
      "lat": 30.1933901,
      "lon": 71.9864634,
      "place_type": "village",
      "population": 5000,
      "osm_id": 9366362991,
      "population_is_estimated": true,
      "district_name": "Multan"
    },
    {
      "name": "Chak 94/10 R",
      "district_id": "multan",
      "division": "Multan",
      "lat": 30.205264,
      "lon": 71.9199045,
      "place_type": "village",
      "population": 5000,
      "osm_id": 9366362992,
      "population_is_estimated": true,
      "district_name": "Multan"
    },
    {
      "name": "Chak 166/10 R",
      "district_id": "multan",
      "division": "Multan",
      "lat": 30.2211525,
      "lon": 71.91455,
      "place_type": "village",
      "population": 5000,
      "osm_id": 9366362993,
      "population_is_estimated": true,
      "district_name": "Multan"
    },
    {
      "name": "Meher Shah",
      "district_id": "multan",
      "division": "Multan",
      "lat": 30.2378036,
      "lon": 71.8846872,
      "place_type": "village",
      "population": 5000,
      "osm_id": 9366362994,
      "population_is_estimated": true,
      "district_name": "Multan"
    },
    {
      "name": "Chak 161/10 R",
      "district_id": "multan",
      "division": "Multan",
      "lat": 30.206874,
      "lon": 71.8857918,
      "place_type": "village",
      "population": 5000,
      "osm_id": 9366362995,
      "population_is_estimated": true,
      "district_name": "Multan"
    },
    {
      "name": "Chak 162/10 R",
      "district_id": "multan",
      "division": "Multan",
      "lat": 30.1892389,
      "lon": 71.8930215,
      "place_type": "village",
      "population": 5000,
      "osm_id": 9366362996,
      "population_is_estimated": true,
      "district_name": "Multan"
    },
    {
      "name": "Chak 95/10 R",
      "district_id": "multan",
      "division": "Multan",
      "lat": 30.1851891,
      "lon": 71.9076658,
      "place_type": "village",
      "population": 5000,
      "osm_id": 9366362997,
      "population_is_estimated": true,
      "district_name": "Multan"
    },
    {
      "name": "Chak 96/10 R",
      "district_id": "multan",
      "division": "Multan",
      "lat": 30.1731111,
      "lon": 71.9290129,
      "place_type": "village",
      "population": 5000,
      "osm_id": 9366362998,
      "population_is_estimated": true,
      "district_name": "Multan"
    },
    {
      "name": "Azizabad",
      "district_id": "multan",
      "division": "Multan",
      "lat": 30.2855096,
      "lon": 71.9020561,
      "place_type": "village",
      "population": 5000,
      "osm_id": 9366362999,
      "population_is_estimated": true,
      "district_name": "Multan"
    },
    {
      "name": "Moza Nanak Pur",
      "district_id": "multan",
      "division": "Multan",
      "lat": 30.2813902,
      "lon": 71.8731894,
      "place_type": "village",
      "population": 5000,
      "osm_id": 9366363000,
      "population_is_estimated": true,
      "district_name": "Multan"
    },
    {
      "name": "Mehrabad",
      "district_id": "multan",
      "division": "Multan",
      "lat": 30.2229377,
      "lon": 71.6296752,
      "place_type": "village",
      "population": 5000,
      "osm_id": 11643634482,
      "population_is_estimated": true,
      "district_name": "Multan"
    },
    {
      "name": "Laluwala",
      "district_id": "multan",
      "division": "Multan",
      "lat": 30.2305939,
      "lon": 71.6337331,
      "place_type": "village",
      "population": 5000,
      "osm_id": 11643634495,
      "population_is_estimated": true,
      "district_name": "Multan"
    },
    {
      "name": "Basti Jhak",
      "district_id": "multan",
      "division": "Multan",
      "lat": 30.2381643,
      "lon": 71.6393338,
      "place_type": "village",
      "population": 5000,
      "osm_id": 11643634511,
      "population_is_estimated": true,
      "district_name": "Multan"
    },
    {
      "name": "Kirpalpur",
      "district_id": "multan",
      "division": "Multan",
      "lat": 30.2397697,
      "lon": 71.6432875,
      "place_type": "village",
      "population": 5000,
      "osm_id": 11643634512,
      "population_is_estimated": true,
      "district_name": "Multan"
    },
    {
      "name": "Mudiwala",
      "district_id": "multan",
      "division": "Multan",
      "lat": 30.2428097,
      "lon": 71.6432084,
      "place_type": "village",
      "population": 5000,
      "osm_id": 11643634513,
      "population_is_estimated": true,
      "district_name": "Multan"
    },
    {
      "name": "Sherinwala",
      "district_id": "multan",
      "division": "Multan",
      "lat": 30.2396774,
      "lon": 71.6483633,
      "place_type": "village",
      "population": 5000,
      "osm_id": 11643634516,
      "population_is_estimated": true,
      "district_name": "Multan"
    },
    {
      "name": "Okanwala",
      "district_id": "multan",
      "division": "Multan",
      "lat": 30.2345242,
      "lon": 71.6571971,
      "place_type": "village",
      "population": 5000,
      "osm_id": 11643634517,
      "population_is_estimated": true,
      "district_name": "Multan"
    },
    {
      "name": "Basti Tatepur",
      "district_id": "multan",
      "division": "Multan",
      "lat": 30.2308227,
      "lon": 71.6617582,
      "place_type": "village",
      "population": 5000,
      "osm_id": 11643634533,
      "population_is_estimated": true,
      "district_name": "Multan"
    },
    {
      "name": "Ahmadwala",
      "district_id": "multan",
      "division": "Multan",
      "lat": 30.2267336,
      "lon": 71.6626381,
      "place_type": "village",
      "population": 5000,
      "osm_id": 11643634534,
      "population_is_estimated": true,
      "district_name": "Multan"
    },
    {
      "name": "Basti Ghulabi",
      "district_id": "multan",
      "division": "Multan",
      "lat": 30.223939,
      "lon": 71.6727454,
      "place_type": "hamlet",
      "population": 500,
      "osm_id": 11643634535,
      "population_is_estimated": true,
      "district_name": "Multan"
    },
    {
      "name": "Mungwad",
      "district_id": "multan",
      "division": "Multan",
      "lat": 30.2210621,
      "lon": 71.6744577,
      "place_type": "hamlet",
      "population": 500,
      "osm_id": 11643634536,
      "population_is_estimated": true,
      "district_name": "Multan"
    },
    {
      "name": "Ranjhewala",
      "district_id": "multan",
      "division": "Multan",
      "lat": 30.2147942,
      "lon": 71.6571445,
      "place_type": "village",
      "population": 5000,
      "osm_id": 11643634537,
      "population_is_estimated": true,
      "district_name": "Multan"
    },
    {
      "name": "Karamabad",
      "district_id": "multan",
      "division": "Multan",
      "lat": 30.2364772,
      "lon": 71.6728362,
      "place_type": "village",
      "population": 5000,
      "osm_id": 11643634572,
      "population_is_estimated": true,
      "district_name": "Multan"
    },
    {
      "name": "Sikandarabad",
      "district_id": "multan",
      "division": "Multan",
      "lat": 30.2359607,
      "lon": 71.6854307,
      "place_type": "village",
      "population": 5000,
      "osm_id": 11643634580,
      "population_is_estimated": true,
      "district_name": "Multan"
    },
    {
      "name": "Basti 22",
      "district_id": "multan",
      "division": "Multan",
      "lat": 30.2390943,
      "lon": 71.6874885,
      "place_type": "village",
      "population": 5000,
      "osm_id": 11643634587,
      "population_is_estimated": true,
      "district_name": "Multan"
    },
    {
      "name": "Dudowala",
      "district_id": "multan",
      "division": "Multan",
      "lat": 30.2279744,
      "lon": 71.6841541,
      "place_type": "village",
      "population": 5000,
      "osm_id": 11643634588,
      "population_is_estimated": true,
      "district_name": "Multan"
    },
    {
      "name": "Lalwala",
      "district_id": "multan",
      "division": "Multan",
      "lat": 30.2280938,
      "lon": 71.6924499,
      "place_type": "village",
      "population": 5000,
      "osm_id": 11643634595,
      "population_is_estimated": true,
      "district_name": "Multan"
    },
    {
      "name": "Mong Wadh",
      "district_id": "multan",
      "division": "Multan",
      "lat": 30.2199726,
      "lon": 71.6835228,
      "place_type": "village",
      "population": 5000,
      "osm_id": 11643634613,
      "population_is_estimated": true,
      "district_name": "Multan"
    },
    {
      "name": "hah Hayatwala",
      "district_id": "multan",
      "division": "Multan",
      "lat": 30.2188155,
      "lon": 71.6509988,
      "place_type": "village",
      "population": 5000,
      "osm_id": 11643634634,
      "population_is_estimated": true,
      "district_name": "Multan"
    },
    {
      "name": "Banjarwala",
      "district_id": "multan",
      "division": "Multan",
      "lat": 30.2119769,
      "lon": 71.6525429,
      "place_type": "village",
      "population": 5000,
      "osm_id": 11643634635,
      "population_is_estimated": true,
      "district_name": "Multan"
    },
    {
      "name": "Hakim Waliwala",
      "district_id": "multan",
      "division": "Multan",
      "lat": 30.206649,
      "lon": 71.6459008,
      "place_type": "village",
      "population": 5000,
      "osm_id": 11643634644,
      "population_is_estimated": true,
      "district_name": "Multan"
    },
    {
      "name": "Chah Udanwala",
      "district_id": "multan",
      "division": "Multan",
      "lat": 30.206339,
      "lon": 71.6500897,
      "place_type": "village",
      "population": 5000,
      "osm_id": 11643634661,
      "population_is_estimated": true,
      "district_name": "Multan"
    },
    {
      "name": "Chah Faridwala",
      "district_id": "multan",
      "division": "Multan",
      "lat": 30.2036213,
      "lon": 71.6539201,
      "place_type": "village",
      "population": 5000,
      "osm_id": 11643634679,
      "population_is_estimated": true,
      "district_name": "Multan"
    },
    {
      "name": "Sherinwala",
      "district_id": "multan",
      "division": "Multan",
      "lat": 30.1982755,
      "lon": 71.6498746,
      "place_type": "village",
      "population": 5000,
      "osm_id": 11643634691,
      "population_is_estimated": true,
      "district_name": "Multan"
    },
    {
      "name": "Khingrianwala",
      "district_id": "multan",
      "division": "Multan",
      "lat": 30.1867447,
      "lon": 71.6449324,
      "place_type": "village",
      "population": 5000,
      "osm_id": 11643657394,
      "population_is_estimated": true,
      "district_name": "Multan"
    },
    {
      "name": "Nathaewala",
      "district_id": "multan",
      "division": "Multan",
      "lat": 30.1843582,
      "lon": 71.6475932,
      "place_type": "village",
      "population": 5000,
      "osm_id": 11643657408,
      "population_is_estimated": true,
      "district_name": "Multan"
    },
    {
      "name": "Khu Maulvi",
      "district_id": "multan",
      "division": "Multan",
      "lat": 30.1799807,
      "lon": 71.6419427,
      "place_type": "village",
      "population": 5000,
      "osm_id": 11643657409,
      "population_is_estimated": true,
      "district_name": "Multan"
    },
    {
      "name": "Sital Mari",
      "district_id": "multan",
      "division": "Multan",
      "lat": 30.1831252,
      "lon": 71.5255235,
      "place_type": "neighbourhood",
      "population": 3000,
      "osm_id": 11643681453,
      "population_is_estimated": true,
      "district_name": "Multan"
    },
    {
      "name": "Basti Bharni",
      "district_id": "multan",
      "division": "Multan",
      "lat": 30.1792701,
      "lon": 71.5282019,
      "place_type": "neighbourhood",
      "population": 3000,
      "osm_id": 11643681461,
      "population_is_estimated": true,
      "district_name": "Multan"
    },
    {
      "name": "Talabwala",
      "district_id": "multan",
      "division": "Multan",
      "lat": 30.1773589,
      "lon": 71.5178641,
      "place_type": "neighbourhood",
      "population": 3000,
      "osm_id": 11643681462,
      "population_is_estimated": true,
      "district_name": "Multan"
    },
    {
      "name": "Chah Nawanwala",
      "district_id": "multan",
      "division": "Multan",
      "lat": 30.1735257,
      "lon": 71.516135,
      "place_type": "neighbourhood",
      "population": 3000,
      "osm_id": 11643681463,
      "population_is_estimated": true,
      "district_name": "Multan"
    },
    {
      "name": "Pirwala",
      "district_id": "multan",
      "division": "Multan",
      "lat": 30.1704286,
      "lon": 71.5025285,
      "place_type": "neighbourhood",
      "population": 3000,
      "osm_id": 11643681464,
      "population_is_estimated": true,
      "district_name": "Multan"
    },
    {
      "name": "Bhaini",
      "district_id": "multan",
      "division": "Multan",
      "lat": 30.1713867,
      "lon": 71.5308964,
      "place_type": "neighbourhood",
      "population": 3000,
      "osm_id": 11643681465,
      "population_is_estimated": true,
      "district_name": "Multan"
    },
    {
      "name": "Amirwala",
      "district_id": "multan",
      "division": "Multan",
      "lat": 30.170784,
      "lon": 71.5448926,
      "place_type": "village",
      "population": 5000,
      "osm_id": 11643681466,
      "population_is_estimated": true,
      "district_name": "Multan"
    },
    {
      "name": "Chah Kothewala",
      "district_id": "multan",
      "division": "Multan",
      "lat": 30.1713365,
      "lon": 71.6403548,
      "place_type": "village",
      "population": 5000,
      "osm_id": 11643691369,
      "population_is_estimated": true,
      "district_name": "Multan"
    },
    {
      "name": "Harowala",
      "district_id": "multan",
      "division": "Multan",
      "lat": 30.1714297,
      "lon": 71.6346762,
      "place_type": "village",
      "population": 5000,
      "osm_id": 11643691384,
      "population_is_estimated": true,
      "district_name": "Multan"
    },
    {
      "name": "Labranwala",
      "district_id": "multan",
      "division": "Multan",
      "lat": 30.1770076,
      "lon": 71.6268569,
      "place_type": "village",
      "population": 5000,
      "osm_id": 11643691389,
      "population_is_estimated": true,
      "district_name": "Multan"
    },
    {
      "name": "Chah Ghainewala",
      "district_id": "multan",
      "division": "Multan",
      "lat": 30.1734061,
      "lon": 71.621243,
      "place_type": "village",
      "population": 5000,
      "osm_id": 11643691396,
      "population_is_estimated": true,
      "district_name": "Multan"
    },
    {
      "name": "Shahwala",
      "district_id": "multan",
      "division": "Multan",
      "lat": 30.1802401,
      "lon": 71.6132007,
      "place_type": "village",
      "population": 5000,
      "osm_id": 11643691408,
      "population_is_estimated": true,
      "district_name": "Multan"
    },
    {
      "name": "Unknown",
      "district_id": "multan",
      "division": "Multan",
      "lat": 30.1808037,
      "lon": 71.6192478,
      "place_type": "hamlet",
      "population": 500,
      "osm_id": 11643691422,
      "population_is_estimated": true,
      "district_name": "Multan"
    },
    {
      "name": "Jhajrianwala",
      "district_id": "multan",
      "division": "Multan",
      "lat": 30.1835122,
      "lon": 71.6245754,
      "place_type": "hamlet",
      "population": 500,
      "osm_id": 11643691476,
      "population_is_estimated": true,
      "district_name": "Multan"
    },
    {
      "name": "Chah Khuda Bakhsh",
      "district_id": "multan",
      "division": "Multan",
      "lat": 30.1868102,
      "lon": 71.6233498,
      "place_type": "village",
      "population": 5000,
      "osm_id": 11643691509,
      "population_is_estimated": true,
      "district_name": "Multan"
    },
    {
      "name": "Chah Sikandarwala",
      "district_id": "multan",
      "division": "Multan",
      "lat": 30.1881686,
      "lon": 71.6309409,
      "place_type": "village",
      "population": 5000,
      "osm_id": 11643691510,
      "population_is_estimated": true,
      "district_name": "Multan"
    },
    {
      "name": "Ghianewala",
      "district_id": "multan",
      "division": "Multan",
      "lat": 30.1836235,
      "lon": 71.6304841,
      "place_type": "village",
      "population": 5000,
      "osm_id": 11643691599,
      "population_is_estimated": true,
      "district_name": "Multan"
    },
    {
      "name": "Gamanwala",
      "district_id": "multan",
      "division": "Multan",
      "lat": 30.1858336,
      "lon": 71.6349308,
      "place_type": "village",
      "population": 5000,
      "osm_id": 11643691621,
      "population_is_estimated": true,
      "district_name": "Multan"
    },
    {
      "name": "Basti Shahbaz Kot",
      "district_id": "multan",
      "division": "Multan",
      "lat": 30.1781246,
      "lon": 71.6010821,
      "place_type": "village",
      "population": 5000,
      "osm_id": 11643691701,
      "population_is_estimated": true,
      "district_name": "Multan"
    },
    {
      "name": "Ghulam Muhammadwala",
      "district_id": "multan",
      "division": "Multan",
      "lat": 30.1771676,
      "lon": 71.5942719,
      "place_type": "village",
      "population": 5000,
      "osm_id": 11643691732,
      "population_is_estimated": true,
      "district_name": "Multan"
    },
    {
      "name": "Ahmadwala",
      "district_id": "multan",
      "division": "Multan",
      "lat": 30.1721981,
      "lon": 71.5938552,
      "place_type": "village",
      "population": 5000,
      "osm_id": 11643691756,
      "population_is_estimated": true,
      "district_name": "Multan"
    },
    {
      "name": "Unknown",
      "district_id": "multan",
      "division": "Multan",
      "lat": 30.1701666,
      "lon": 71.5970349,
      "place_type": "hamlet",
      "population": 500,
      "osm_id": 11643691767,
      "population_is_estimated": true,
      "district_name": "Multan"
    },
    {
      "name": "Domra",
      "district_id": "multan",
      "division": "Multan",
      "lat": 30.1879937,
      "lon": 71.5812068,
      "place_type": "village",
      "population": 5000,
      "osm_id": 11643691782,
      "population_is_estimated": true,
      "district_name": "Multan"
    },
    {
      "name": "Chah Jahanwala",
      "district_id": "multan",
      "division": "Multan",
      "lat": 30.18258,
      "lon": 71.5773952,
      "place_type": "village",
      "population": 5000,
      "osm_id": 11643691838,
      "population_is_estimated": true,
      "district_name": "Multan"
    },
    {
      "name": "Unknown",
      "district_id": "multan",
      "division": "Multan",
      "lat": 30.1788605,
      "lon": 71.5710607,
      "place_type": "village",
      "population": 5000,
      "osm_id": 11643691842,
      "population_is_estimated": true,
      "district_name": "Multan"
    },
    {
      "name": "Chah Wazirwala",
      "district_id": "multan",
      "division": "Multan",
      "lat": 30.1902587,
      "lon": 71.5855229,
      "place_type": "village",
      "population": 5000,
      "osm_id": 11643691868,
      "population_is_estimated": true,
      "district_name": "Multan"
    },
    {
      "name": "Nazimwala",
      "district_id": "multan",
      "division": "Multan",
      "lat": 30.206997,
      "lon": 71.5950141,
      "place_type": "village",
      "population": 5000,
      "osm_id": 11643691910,
      "population_is_estimated": true,
      "district_name": "Multan"
    },
    {
      "name": "Wazirabad",
      "district_id": "multan",
      "division": "Multan",
      "lat": 30.205379,
      "lon": 71.5886547,
      "place_type": "village",
      "population": 5000,
      "osm_id": 11643691911,
      "population_is_estimated": true,
      "district_name": "Multan"
    },
    {
      "name": "Chah Makhni",
      "district_id": "multan",
      "division": "Multan",
      "lat": 30.1998572,
      "lon": 71.5940186,
      "place_type": "village",
      "population": 5000,
      "osm_id": 11643691921,
      "population_is_estimated": true,
      "district_name": "Multan"
    },
    {
      "name": "Asuwala",
      "district_id": "multan",
      "division": "Multan",
      "lat": 30.1984462,
      "lon": 71.5869387,
      "place_type": "village",
      "population": 5000,
      "osm_id": 11643691933,
      "population_is_estimated": true,
      "district_name": "Multan"
    },
    {
      "name": "Hazulwala",
      "district_id": "multan",
      "division": "Multan",
      "lat": 30.1902661,
      "lon": 71.5933904,
      "place_type": "village",
      "population": 5000,
      "osm_id": 11643691949,
      "population_is_estimated": true,
      "district_name": "Multan"
    },
    {
      "name": "Queen & Princess Residency",
      "district_id": "multan",
      "division": "Multan",
      "lat": 30.1864931,
      "lon": 71.5737259,
      "place_type": "neighbourhood",
      "population": 3000,
      "osm_id": 11643691971,
      "population_is_estimated": true,
      "district_name": "Multan"
    },
    {
      "name": "Ali Green City",
      "district_id": "multan",
      "division": "Multan",
      "lat": 30.1798331,
      "lon": 71.5662172,
      "place_type": "neighbourhood",
      "population": 3000,
      "osm_id": 11643691975,
      "population_is_estimated": true,
      "district_name": "Multan"
    },
    {
      "name": "Basti Bahawal Khera",
      "district_id": "multan",
      "division": "Multan",
      "lat": 30.1828866,
      "lon": 71.5562219,
      "place_type": "village",
      "population": 5000,
      "osm_id": 11643691976,
      "population_is_estimated": true,
      "district_name": "Multan"
    },
    {
      "name": "Nalwala",
      "district_id": "multan",
      "division": "Multan",
      "lat": 30.1794903,
      "lon": 71.5465694,
      "place_type": "village",
      "population": 5000,
      "osm_id": 11643691990,
      "population_is_estimated": true,
      "district_name": "Multan"
    },
    {
      "name": "Basti Nurpur",
      "district_id": "multan",
      "division": "Multan",
      "lat": 30.1839714,
      "lon": 71.5375961,
      "place_type": "village",
      "population": 5000,
      "osm_id": 11643692072,
      "population_is_estimated": true,
      "district_name": "Multan"
    },
    {
      "name": "Samijabad",
      "district_id": "multan",
      "division": "Multan",
      "lat": 30.1943757,
      "lon": 71.5374554,
      "place_type": "neighbourhood",
      "population": 3000,
      "osm_id": 11643692088,
      "population_is_estimated": true,
      "district_name": "Multan"
    },
    {
      "name": "Chah Pirwala",
      "district_id": "multan",
      "division": "Multan",
      "lat": 30.166094,
      "lon": 71.5569451,
      "place_type": "village",
      "population": 5000,
      "osm_id": 11643773780,
      "population_is_estimated": true,
      "district_name": "Multan"
    },
    {
      "name": "Chah Allah Dad Wala",
      "district_id": "multan",
      "division": "Multan",
      "lat": 30.1656349,
      "lon": 71.548039,
      "place_type": "village",
      "population": 5000,
      "osm_id": 11643773847,
      "population_is_estimated": true,
      "district_name": "Multan"
    },
    {
      "name": "Bannawala",
      "district_id": "multan",
      "division": "Multan",
      "lat": 30.1604163,
      "lon": 71.5558059,
      "place_type": "village",
      "population": 5000,
      "osm_id": 11643773856,
      "population_is_estimated": true,
      "district_name": "Multan"
    },
    {
      "name": "Kot Rab Nawaz",
      "district_id": "multan",
      "division": "Multan",
      "lat": 30.1520504,
      "lon": 71.5463374,
      "place_type": "suburb",
      "population": 15000,
      "osm_id": 11643773857,
      "population_is_estimated": true,
      "district_name": "Multan"
    },
    {
      "name": "Bherwala",
      "district_id": "multan",
      "division": "Multan",
      "lat": 30.1407199,
      "lon": 71.5463423,
      "place_type": "village",
      "population": 5000,
      "osm_id": 11643773934,
      "population_is_estimated": true,
      "district_name": "Multan"
    },
    {
      "name": "Zulfiqarwala",
      "district_id": "multan",
      "division": "Multan",
      "lat": 30.1443177,
      "lon": 71.5449307,
      "place_type": "village",
      "population": 5000,
      "osm_id": 11643773935,
      "population_is_estimated": true,
      "district_name": "Multan"
    },
    {
      "name": "Ramzanwala",
      "district_id": "multan",
      "division": "Multan",
      "lat": 30.1420691,
      "lon": 71.5627312,
      "place_type": "village",
      "population": 5000,
      "osm_id": 11643773936,
      "population_is_estimated": true,
      "district_name": "Multan"
    },
    {
      "name": "Korawala",
      "district_id": "multan",
      "division": "Multan",
      "lat": 30.1477997,
      "lon": 71.5745437,
      "place_type": "village",
      "population": 5000,
      "osm_id": 11643773963,
      "population_is_estimated": true,
      "district_name": "Multan"
    },
    {
      "name": "Samandariwala",
      "district_id": "multan",
      "division": "Multan",
      "lat": 30.1458467,
      "lon": 71.5750637,
      "place_type": "village",
      "population": 5000,
      "osm_id": 11643773964,
      "population_is_estimated": true,
      "district_name": "Multan"
    },
    {
      "name": "Basti Sadiqabad",
      "district_id": "multan",
      "division": "Multan",
      "lat": 30.1336909,
      "lon": 71.5629392,
      "place_type": "village",
      "population": 5000,
      "osm_id": 11643774036,
      "population_is_estimated": true,
      "district_name": "Multan"
    },
    {
      "name": "Gharibabad",
      "district_id": "multan",
      "division": "Multan",
      "lat": 30.1338336,
      "lon": 71.5750542,
      "place_type": "village",
      "population": 5000,
      "osm_id": 11643774051,
      "population_is_estimated": true,
      "district_name": "Multan"
    },
    {
      "name": "Jahanwala",
      "district_id": "multan",
      "division": "Multan",
      "lat": 30.1409036,
      "lon": 71.5821723,
      "place_type": "village",
      "population": 5000,
      "osm_id": 11643774077,
      "population_is_estimated": true,
      "district_name": "Multan"
    },
    {
      "name": "Sher Singhwala",
      "district_id": "multan",
      "division": "Multan",
      "lat": 30.1131999,
      "lon": 71.5763721,
      "place_type": "village",
      "population": 5000,
      "osm_id": 11643774096,
      "population_is_estimated": true,
      "district_name": "Multan"
    },
    {
      "name": "Jassewala",
      "district_id": "multan",
      "division": "Multan",
      "lat": 30.1109378,
      "lon": 71.5693738,
      "place_type": "village",
      "population": 5000,
      "osm_id": 11643774097,
      "population_is_estimated": true,
      "district_name": "Multan"
    },
    {
      "name": "Jummawala",
      "district_id": "multan",
      "division": "Multan",
      "lat": 30.1046502,
      "lon": 71.5459258,
      "place_type": "village",
      "population": 5000,
      "osm_id": 11644064317,
      "population_is_estimated": true,
      "district_name": "Multan"
    },
    {
      "name": "Gulzarpur",
      "district_id": "multan",
      "division": "Multan",
      "lat": 30.0976254,
      "lon": 71.5573592,
      "place_type": "village",
      "population": 5000,
      "osm_id": 11644081896,
      "population_is_estimated": true,
      "district_name": "Multan"
    },
    {
      "name": "Butewala",
      "district_id": "multan",
      "division": "Multan",
      "lat": 30.0973016,
      "lon": 71.5802733,
      "place_type": "village",
      "population": 5000,
      "osm_id": 11644081973,
      "population_is_estimated": true,
      "district_name": "Multan"
    },
    {
      "name": "Kathwala",
      "district_id": "multan",
      "division": "Multan",
      "lat": 30.0868871,
      "lon": 71.5729983,
      "place_type": "village",
      "population": 5000,
      "osm_id": 11644081997,
      "population_is_estimated": true,
      "district_name": "Multan"
    },
    {
      "name": "Sherewala",
      "district_id": "multan",
      "division": "Multan",
      "lat": 30.073274,
      "lon": 71.5630456,
      "place_type": "village",
      "population": 5000,
      "osm_id": 11644082010,
      "population_is_estimated": true,
      "district_name": "Multan"
    },
    {
      "name": "Chanduranwala",
      "district_id": "multan",
      "division": "Multan",
      "lat": 30.0727389,
      "lon": 71.5710007,
      "place_type": "village",
      "population": 5000,
      "osm_id": 11644082017,
      "population_is_estimated": true,
      "district_name": "Multan"
    },
    {
      "name": "Chah Chadharwala",
      "district_id": "multan",
      "division": "Multan",
      "lat": 30.082954,
      "lon": 71.5876167,
      "place_type": "village",
      "population": 5000,
      "osm_id": 11644082037,
      "population_is_estimated": true,
      "district_name": "Multan"
    },
    {
      "name": "Pir Bakhshwala",
      "district_id": "multan",
      "division": "Multan",
      "lat": 30.0873289,
      "lon": 71.5869443,
      "place_type": "village",
      "population": 5000,
      "osm_id": 11644082044,
      "population_is_estimated": true,
      "district_name": "Multan"
    },
    {
      "name": "Basti Wahilyan",
      "district_id": "multan",
      "division": "Multan",
      "lat": 30.0632847,
      "lon": 71.5745903,
      "place_type": "village",
      "population": 5000,
      "osm_id": 11644082055,
      "population_is_estimated": true,
      "district_name": "Multan"
    },
    {
      "name": "Chak Pathanwala",
      "district_id": "multan",
      "division": "Multan",
      "lat": 30.062549,
      "lon": 71.5853839,
      "place_type": "village",
      "population": 5000,
      "osm_id": 11644082079,
      "population_is_estimated": true,
      "district_name": "Multan"
    },
    {
      "name": "Islampur",
      "district_id": "multan",
      "division": "Multan",
      "lat": 30.0578439,
      "lon": 71.5702017,
      "place_type": "village",
      "population": 5000,
      "osm_id": 11644082086,
      "population_is_estimated": true,
      "district_name": "Multan"
    },
    {
      "name": "Faridpur",
      "district_id": "multan",
      "division": "Multan",
      "lat": 30.0464177,
      "lon": 71.5701722,
      "place_type": "village",
      "population": 5000,
      "osm_id": 11644089473,
      "population_is_estimated": true,
      "district_name": "Multan"
    },
    {
      "name": "Adda Faridpur",
      "district_id": "multan",
      "division": "Multan",
      "lat": 30.0463249,
      "lon": 71.5786837,
      "place_type": "neighbourhood",
      "population": 3000,
      "osm_id": 11644089482,
      "population_is_estimated": true,
      "district_name": "Multan"
    },
    {
      "name": "Liaqatpur",
      "district_id": "multan",
      "division": "Multan",
      "lat": 30.0433901,
      "lon": 71.5808366,
      "place_type": "village",
      "population": 5000,
      "osm_id": 11644089506,
      "population_is_estimated": true,
      "district_name": "Multan"
    },
    {
      "name": "Chah Arifwala",
      "district_id": "multan",
      "division": "Multan",
      "lat": 30.0374583,
      "lon": 71.5792273,
      "place_type": "village",
      "population": 5000,
      "osm_id": 11644089563,
      "population_is_estimated": true,
      "district_name": "Multan"
    },
    {
      "name": "Sahu",
      "district_id": "multan",
      "division": "Multan",
      "lat": 30.0591064,
      "lon": 71.6029687,
      "place_type": "village",
      "population": 5000,
      "osm_id": 11644089567,
      "population_is_estimated": true,
      "district_name": "Multan"
    },
    {
      "name": "Basti Manak",
      "district_id": "multan",
      "division": "Multan",
      "lat": 30.0767696,
      "lon": 71.6034401,
      "place_type": "village",
      "population": 5000,
      "osm_id": 11644089599,
      "population_is_estimated": true,
      "district_name": "Multan"
    },
    {
      "name": "Kirariwala",
      "district_id": "multan",
      "division": "Multan",
      "lat": 30.0745723,
      "lon": 71.6079533,
      "place_type": "village",
      "population": 5000,
      "osm_id": 11644089619,
      "population_is_estimated": true,
      "district_name": "Multan"
    },
    {
      "name": "Basti Bazdarwala",
      "district_id": "multan",
      "division": "Multan",
      "lat": 30.0689705,
      "lon": 71.6086114,
      "place_type": "village",
      "population": 5000,
      "osm_id": 11644089655,
      "population_is_estimated": true,
      "district_name": "Multan"
    },
    {
      "name": "Gohorwala",
      "district_id": "multan",
      "division": "Multan",
      "lat": 30.0867073,
      "lon": 71.6012491,
      "place_type": "village",
      "population": 5000,
      "osm_id": 11644089656,
      "population_is_estimated": true,
      "district_name": "Multan"
    },
    {
      "name": "Chitha Kalan",
      "district_id": "multan",
      "division": "Multan",
      "lat": 30.0931467,
      "lon": 71.6199748,
      "place_type": "village",
      "population": 5000,
      "osm_id": 11644089657,
      "population_is_estimated": true,
      "district_name": "Multan"
    },
    {
      "name": "Chitha Rhurd",
      "district_id": "multan",
      "division": "Multan",
      "lat": 30.0918069,
      "lon": 71.6080146,
      "place_type": "village",
      "population": 5000,
      "osm_id": 11644089683,
      "population_is_estimated": true,
      "district_name": "Multan"
    },
    {
      "name": "Nawan Shehr",
      "district_id": "multan",
      "division": "Multan",
      "lat": 30.1683503,
      "lon": 71.6484533,
      "place_type": "village",
      "population": 5000,
      "osm_id": 11644090360,
      "population_is_estimated": true,
      "district_name": "Multan"
    },
    {
      "name": "Basti Man",
      "district_id": "multan",
      "division": "Multan",
      "lat": 30.1079449,
      "lon": 71.6084151,
      "place_type": "village",
      "population": 5000,
      "osm_id": 11644166497,
      "population_is_estimated": true,
      "district_name": "Multan"
    },
    {
      "name": "Arbi",
      "district_id": "multan",
      "division": "Multan",
      "lat": 30.1234771,
      "lon": 71.6098202,
      "place_type": "village",
      "population": 5000,
      "osm_id": 11644166526,
      "population_is_estimated": true,
      "district_name": "Multan"
    },
    {
      "name": "Dhulwala",
      "district_id": "multan",
      "division": "Multan",
      "lat": 30.1163084,
      "lon": 71.6193162,
      "place_type": "village",
      "population": 5000,
      "osm_id": 11644166541,
      "population_is_estimated": true,
      "district_name": "Multan"
    },
    {
      "name": "Jalalabad",
      "district_id": "multan",
      "division": "Multan",
      "lat": 30.1289214,
      "lon": 71.6384211,
      "place_type": "village",
      "population": 5000,
      "osm_id": 11644166558,
      "population_is_estimated": true,
      "district_name": "Multan"
    },
    {
      "name": "Sultaniwala",
      "district_id": "multan",
      "division": "Multan",
      "lat": 30.1349856,
      "lon": 71.636024,
      "place_type": "village",
      "population": 5000,
      "osm_id": 11644166585,
      "population_is_estimated": true,
      "district_name": "Multan"
    },
    {
      "name": "Abdullahwala",
      "district_id": "multan",
      "division": "Multan",
      "lat": 30.130849,
      "lon": 71.6312368,
      "place_type": "village",
      "population": 5000,
      "osm_id": 11644166607,
      "population_is_estimated": true,
      "district_name": "Multan"
    },
    {
      "name": "Miran Bakhs",
      "district_id": "multan",
      "division": "Multan",
      "lat": 30.1360878,
      "lon": 71.6246786,
      "place_type": "village",
      "population": 5000,
      "osm_id": 11644166628,
      "population_is_estimated": true,
      "district_name": "Multan"
    },
    {
      "name": "Shah Abdinwala",
      "district_id": "multan",
      "division": "Multan",
      "lat": 30.1321714,
      "lon": 71.6244039,
      "place_type": "hamlet",
      "population": 500,
      "osm_id": 11644166635,
      "population_is_estimated": true,
      "district_name": "Multan"
    },
    {
      "name": "Sumnanwala",
      "district_id": "multan",
      "division": "Multan",
      "lat": 30.1693397,
      "lon": 71.6565159,
      "place_type": "village",
      "population": 5000,
      "osm_id": 11644414970,
      "population_is_estimated": true,
      "district_name": "Multan"
    },
    {
      "name": "Basti Palo",
      "district_id": "multan",
      "division": "Multan",
      "lat": 30.16096,
      "lon": 71.6568173,
      "place_type": "village",
      "population": 5000,
      "osm_id": 11644414997,
      "population_is_estimated": true,
      "district_name": "Multan"
    },
    {
      "name": "Bhanjranwala",
      "district_id": "multan",
      "division": "Multan",
      "lat": 30.1505703,
      "lon": 71.6526763,
      "place_type": "village",
      "population": 5000,
      "osm_id": 11644415061,
      "population_is_estimated": true,
      "district_name": "Multan"
    },
    {
      "name": "Beguwala",
      "district_id": "multan",
      "division": "Multan",
      "lat": 30.1404746,
      "lon": 71.6505282,
      "place_type": "village",
      "population": 5000,
      "osm_id": 11644415073,
      "population_is_estimated": true,
      "district_name": "Multan"
    },
    {
      "name": "Jaweywala",
      "district_id": "multan",
      "division": "Multan",
      "lat": 30.143018,
      "lon": 71.6467322,
      "place_type": "village",
      "population": 5000,
      "osm_id": 11644415112,
      "population_is_estimated": true,
      "district_name": "Multan"
    },
    {
      "name": "Basti Juj",
      "district_id": "multan",
      "division": "Multan",
      "lat": 30.1519714,
      "lon": 71.6406971,
      "place_type": "village",
      "population": 5000,
      "osm_id": 11644415171,
      "population_is_estimated": true,
      "district_name": "Multan"
    },